{
  "hotels": [{
    "id": "1",
    "type": "1",
    "contact_id": "1",
    "title": "Landhotel & Gasthof Cramer ***",
    "location": "Im Ortszentrum von Hirschberg gelegen.",
    "character": "In der alten Wirtsstube ist der unverwechselbare Charakter des Hauses bewahrt. Urgem\u00fctlichkeit findet man im Kaminzimmer sowie im Christophorus-Saal. Vielf\u00e4ltige K\u00fcche feiner und deftiger Speisen. Bekannt gut sind die delikaten Wildgerichte und die frischen Fischspezialit\u00e4ten.",
    "rooms": "Freundliche, helle G\u00e4stezimmer, alle mit Bad oder Dusche, WC, Sat-TV und Telefon. Im kleinen Fachwerkhaus neben dem Hauptgeb\u00e4ude gibt es zwei moderne Appartements.",
    "specials": "Tagungsraum f\u00fcr 80 Personen mit Tagungstechnik. Parkplatz, Garage. Hunde erlaubt,  Kindererm\u00e4\u00dfigung: bis 5 Jahre = frei, 6-12 Jahre = 50 %, im DZ der Eltern. Kreditkarten: Eurocard, Amex, Diner\u00b4s Club, Visa, Electronic Cash.",
    "price_info": "Aktuelle Preise finden Sie auf der Homepage www.landhotel-cramer.de",
    "image_prefix": "images/cramer"
  }, {
    "id": "2",
    "type": "1",
    "contact_id": "2",
    "title": "Gasthof Sauerl\u00e4nder Hof",
    "location": "Im Ortszentrum von Hirschberg gelegen",
    "character": "Gem\u00fctlicher Gasthof mit mit rustikaler Gaststube.",
    "rooms": "Freundliche G\u00e4stezimmer mit D\/WC, TV und W-LAN.",
    "specials": "Idealer Ausgangspunkt f\u00fcr Wanderungen durch den Naturpark \"Arnsberger Wald\" und sonstige Ausfl\u00fcge.",
    "price_info": "Doppelzimmer: 45 \u20ac, Einzelzimmer: 50 \u20ac. Die Preise gelten für die Übernachtung mit Frühstück pro Person und Tag.",
    "image_prefix": "images/sauerlaender_hof"
  }, {
    "id": "3",
    "type": "1",
    "contact_id": "3",
    "title": "Gasthof-Pension \"Zum Hirsch\"",
    "location": "Unser Haus, mit famili\u00e4rer und gem\u00fctlicher Atmosph\u00e4re, liegt absolut ruhig und doch nahe am Ortskern. Von der begr\u00fcnten Terrasse aus genie\u00dfen Sie im Sommer einen herrlichen Blick auf die umliegende, weite Landschaft.",
    "character": "Famili\u00e4r gef\u00fchrter Gasthof mit rustikaler Schankwirtschaft. Die gem\u00fctlichen Gastr\u00e4ume vermitteln Behaglichkeit und angenehme Atmosph\u00e4re. Hier werden gutb\u00fcrgerliche Speisen und gepflegte Getr\u00e4nke serviert. Aufenthaltsraum mit Sat-TV und Balkon. Tagungsraum f\u00fcr 45 Personen",
    "rooms": "Komfortable G\u00e4stezimmer mit DU\/WC und Sat-TV. Kinderbett m\u00f6glich",
    "specials": "Sonnige Terrasse mit herrlichem Panoramablick. Kindererm\u00e4\u00dfigung: bis 4 Jahre = 90 %, bis 8 Jahre = 60 %, G\u00fcltig im DZ bei 1 Vollzahler,  G\u00fcltig im 2. Zimmer",
    "price_info": "Aktuelle Preise finden Sie auf der Homepage www.hirsch-hirschberg.de",
    "image_prefix": "images/zum_hirsch"
  }, {
    "id": "21",
    "type": "1",
    "contact_id": "17",
    "title": "Gasthof-Pension Birkenhof",
    "location": "Unsere familengeführte Pension liegt am Rande des Arnsberger Waldes. Als Ausgangspunkt für Wanderungen, Motorradtouren oder einfach zum Erholen. Genießen Sie unsere vielseitige frische Küche.",
    "character": "Im Jahr 1996 haben wir den Birkenhof übernommen und führen ihn seit dieser Zeit als reines Familienunternehmen. Wir wollen ein bisschen Heimat für jedermann. Am Rande des Arnsberger Wald gelegen bietet sich hier die Möglichkeit zu entspannen. Man kann hier wunderbar wandern ob nur ein kleiner Spaziergang oder eine Tageswanderung alles ist möglich, da wir direkt an der Sauerländer Waldroute liegen. Auch ideal für Biker da unser Haus als Ausgangspunkt für viele Touren geeignet ist.",
    "image_prefix": "images/birkenhof-logo"
  }],
  "flats": [{
    "id": "9",
    "type": "3",
    "contact_id": "9",
    "title": "Ferienwohnung Marita Rebbert",
    "location": "Ruhige S\u00fcdhanglage",
    "character": "Ferienwohnung f\u00fcr 2-3 Personen besteht aus 1 Schlafzimmer, Wohnzimmer mit Kochnische, Farbfernseher, DU\/WC.",
    "rooms": "",
    "specials": "Bettw\u00e4sche vorhanden. Tiere sind erw\u00fcnscht. Auf Wunsch werden den G\u00e4sten gef\u00fchrte Wanderungen angeboten. ",
    "price_info": "30 \u20ac pro Tag, 210 \u20ac pro Woche",
    "image_prefix": "images/rebbert"
  }, {
    "id": "13",
    "type": "3",
    "contact_id": "13",
    "title": "Ferienwohnung Anne Hirnstein",
    "location": "Die Ferienwohnung befindet sich in ruhiger Lage am Ortsrand von Hirschberg im Naturpark \"Arnsberger Wald\". In der N\u00e4he gibt es einen Spielplatz.",
    "character": "Gem\u00fctliche helle Ferienwohnung im Erdgeschoss unseres Zweifamilienhauses f\u00fcr 2-5 Personen. Die Wohnung ist 88 m\u00b2 gro\u00df, komplett eingerichtet mit K\u00fcche, Esszimmer, 1 Wohnzimmer, 1 Schlafzimmer, Dusche\/WC. Cd-Player, Sat-TV und DVD Player sind ebenfalls vorhanden. F\u00fcr unsere kleinen G\u00e4ste steht ein Babybett, sowie ein Hochstuhl bereit. Gute Anbindung an die Sauerland - Waldroute.",
    "rooms": "",
    "specials": "Liegewiese, gro\u00dfe Terrasse mit Sitz- und Grillm\u00f6glichkeit. Parkplatz f\u00fcr PKW. Idealer Ausgangsort f\u00fcr herrliche Spazierg\u00e4nge und Wanderungen. Verleih von Wanderkarten, Abholservice von Wanderungen. Auf Wunsch Fr\u00fchst\u00fccksservice buchbar. Verleih von 2 E-Bikes. Ideal auch f\u00fcr Kinder (Spielzeug vorhanden). Energiekosten, Bettw\u00e4sche, Hand- und K\u00fcchent\u00fccher inklusive.",
    "price_info": "siehe Homepage",
    "image_prefix": "images/hirnstein"
  }, {
    "id": "15",
    "type": "3",
    "contact_id": "16",
    "title": "Ferienwohnung Elisabeth Hoff",
    "location": "Im Ortskern gelegen",
    "character": "60 m\u00b2 gro\u00dfe Ferienwohnung f\u00fcr 2-4 Personen mit 1 Wohnraum, 3 Schlafr\u00e4umen, Dusche\/WC und K\u00fcche. Terasse\/Liegewiese, Balkon.",
    "rooms": null,
    "specials": "Monteure willkommen, langfristige Vermietung m\u00f6glich. Bettw\u00e4sche inkl.",
    "price_info": "auf Anfrage"
  }, {
    "id": "19",
    "type": "3",
    "contact_id": "7",
    "title": "Ferienwohung Helma M\u00f6sch 60m\u00b2",
    "location": "Ruhige Lage mit sch\u00f6ner, freier Aussicht auf den \"Arnsberger Wald\". Kein Durchgangsverkehr bei zentraler Lage in der N\u00e4he des Ortskerns.",
    "character": "Gem\u00fctlich, modern und komfortabel eingerichtete Ferienwohnung f\u00fcr 2-4 Personen. 60 qm gro\u00df, K\u00fcche, 1 Schlafzimmer, 1 Wohn-Schlafzimmer, Sat-TV, Bad\/WC",
    "rooms": null,
    "specials": "Terrasse, Liegewiese, Grillplatz. Parkplatz f\u00fcr Pkw. In direkter N\u00e4he zum Ortskern und damit zu den Gesch\u00e4ften im Ort. Im und am Haus absolute Ruhe. Idealer Ausgangsort f\u00fcr Wanderungen. Bettw\u00e4sche inkl.",
    "price_info": "238-336 \u20ac pro Woche",
    "image_prefix": "images/moesch"
  }, {
    "id": "20",
    "type": "3",
    "contact_id": "7",
    "title": "Ferienwohung Helma M\u00f6sch 40m\u00b2",
    "location": "Ruhige Lage mit sch\u00f6ner, freier Aussicht auf den \"Arnsberger Wald\". Kein Durchgangsverkehr bei zentraler Lage in der N\u00e4he des Ortskerns.",
    "character": "Gem\u00fctlich, modern und komfortabel eingerichtete Ferienwohnung f\u00fcr 2-4 Personen. 60 qm gro\u00df, K\u00fcche, 1 Schlafzimmer, 1 Wohn-Schlafzimmer, Sat-TV, Bad\/WC",
    "rooms": null,
    "specials": "Terrasse, Liegewiese, Grillplatz. Parkplatz f\u00fcr Pkw. In direkter N\u00e4he zum Ortskern und damit zu den Gesch\u00e4ften im Ort. Im und am Haus absolute Ruhe. Idealer Ausgangsort f\u00fcr Wanderungen. Bettw\u00e4sche inkl.",
    "price_info": "238-336 \u20ac pro Woche",
    "image_prefix": "images/moesch"
  }],
  "contacts": {
    "1": {
      "company_name": "Landhotel Gasthof Cramer",
      "contact_salutation": "",
      "contact_firstname": null,
      "contact_lastname": null,
      "street": "Prinzenstra\u00dfe",
      "house_number": "2",
      "zip": "59581",
      "city": "Warstein-Hirschberg",
      "phone": "02902-9880",
      "mobile": "",
      "fax": "02902-988260",
      "email_address": "info@landhotel-cramer.de",
      "web_address": "https:\/\/www.landhotel-cramer.de"
    },
    "2": {
      "company_name": "Sauerl\u00e4nder Hof",
      "contact_salutation": "Frau",
      "contact_firstname": "Maria",
      "contact_lastname": "Baronowsky",
      "street": "Arnsberger Stra\u00dfe",
      "house_number": "2",
      "zip": "59581",
      "city": "Warstein-Hirschberg",
      "phone": "02902-3209",
      "mobile": "",
      "fax": "",
      "email_address": "sauerlaender-hof@web.de",
      "web_address": ""
    },
    "3": {
      "company_name": "Gasthof-Pension \"Zum Hirsch\"",
      "contact_salutation": "Frau",
      "contact_firstname": "Karin",
      "contact_lastname": "Krewitt",
      "street": "Stadtgraben",
      "house_number": "23",
      "zip": "59581",
      "city": "Warstein-Hirschberg",
      "phone": "02902-3645",
      "mobile": "",
      "fax": "02902-59555",
      "email_address": "info@hirsch-hirschberg.de",
      "web_address": "https:\/\/www.zum-hirsch-hirschberg.de\/"
    },
    "5": {
      "company_name": "Ferienwohnung Herbert und Brunhild Dange",
      "contact_salutation": "Herr",
      "contact_firstname": "Herbert",
      "contact_lastname": "Dange",
      "street": "Christoffelsberg",
      "house_number": "33",
      "zip": "59581",
      "city": "Warstein-Hirschberg",
      "phone": "02902-4381",
      "mobile": "",
      "fax": "02902-4380",
      "email_address": "info@ferienwohnungen-sauerland.com",
      "web_address": "http:\/\/www.ferienwohnungen-sauerland.com\/"
    },
    "6": {
      "company_name": "Ferienwohnung Alfons Hesse",
      "contact_salutation": "Herr",
      "contact_firstname": "Alfons",
      "contact_lastname": "Hesse",
      "street": "Gr\u00fcner Weg",
      "house_number": "7",
      "zip": "59556",
      "city": "Lippstadt-Bad Waldliesborn",
      "phone": "02941-8593",
      "mobile": "0171-9532171",
      "fax": "02941-9688958",
      "email_address": null,
      "web_address": null
    },
    "7": {
      "company_name": "Ferienwohnung Helma M\u00f6sch",
      "contact_salutation": "Frau",
      "contact_firstname": "Helma",
      "contact_lastname": "M\u00f6sch",
      "street": "Deulweg",
      "house_number": "5",
      "zip": "59581",
      "city": "Warstein-Hirschberg",
      "phone": "02902-5611",
      "mobile": null,
      "fax": "02902-5611",
      "email_address": null,
      "web_address": null
    },
    "8": {
      "company_name": "Ferienwohnung Rasch",
      "contact_salutation": "Frau",
      "contact_firstname": "Marianne",
      "contact_lastname": "Rasch",
      "street": "Bache",
      "house_number": "3",
      "zip": "59581",
      "city": "Warstein-Hirschberg",
      "phone": "02902-4021",
      "mobile": null,
      "fax": null,
      "email_address": "info@fewo-rasch.de",
      "web_address": "http:\/\/www.fewo-rasch.de\/"
    },
    "9": {
      "company_name": "Ferienwohnung Marita Rebbert",
      "contact_salutation": "Frau",
      "contact_firstname": "Marita",
      "contact_lastname": "Rebbert",
      "street": "Woltersiepen",
      "house_number": "7",
      "zip": "59581",
      "city": "Warstein-Hirschberg",
      "phone": "02902-4834",
      "mobile": null,
      "fax": null,
      "email_address": null,
      "web_address": null
    },
    "10": {
      "company_name": "Ferienwohnung Rita Schroeter",
      "contact_salutation": "Frau",
      "contact_firstname": "Rita",
      "contact_lastname": "Schroeter",
      "street": "Hagenstra\u00dfe",
      "house_number": "5",
      "zip": "59581",
      "city": "Warstein-Hirschberg",
      "phone": "02902-2647",
      "mobile": null,
      "fax": "02902-57056",
      "email_address": "harald.schroeter@t-online.de",
      "web_address": "http:\/\/www.fewo-schroeter.de\/"
    },
    "11": {
      "company_name": "Ferienwohnung Barbara Peters",
      "contact_salutation": "Frau",
      "contact_firstname": "Barbara",
      "contact_lastname": "Peters",
      "street": "L\u00e4rchenweg",
      "house_number": "4",
      "zip": "59581",
      "city": "Warstein-Hirschberg",
      "phone": "02943-871180",
      "mobile": null,
      "fax": null,
      "email_address": null,
      "web_address": null
    },
    "12": {
      "company_name": "Ferienwohnung Ingrid Walter",
      "contact_salutation": "Frau",
      "contact_firstname": "Ingrid",
      "contact_lastname": "Walter",
      "street": "Schlehenallee",
      "house_number": "13",
      "zip": "59581",
      "city": "Warstein-Hirschberg",
      "phone": "02902-57754",
      "mobile": null,
      "fax": null,
      "email_address": null,
      "web_address": null
    },
    "13": {
      "company_name": "Ferienwohnung Anne Hirnstein",
      "contact_salutation": "Frau",
      "contact_firstname": "Anne",
      "contact_lastname": "Hirnstein",
      "street": "Speckeweg",
      "house_number": "13",
      "zip": "59581",
      "city": "Warstein-Hirschberg",
      "phone": "02902-3902",
      "mobile": "0171-9835581",
      "fax": null,
      "email_address": "hirnstein@t-online.de",
      "web_address": "http:\/\/www.ferienwohnunghirnstein.npage.de"
    },
    "14": {
      "company_name": "Ferienwohnung Evelyn Patryjas",
      "contact_salutation": "Frau",
      "contact_firstname": "Evelyn",
      "contact_lastname": "Patryjas",
      "street": "Arnsberger Str.",
      "house_number": "57",
      "zip": "59581",
      "city": "Warstein-Hirschberg",
      "phone": "0290258869",
      "mobile": null,
      "fax": "02902-911713",
      "email_address": "wolfgang.patrylas@t-online.de",
      "web_address": null
    },
    "15": {
      "company_name": "Ferienwohnung Benedicte Hoff",
      "contact_salutation": "Frau",
      "contact_firstname": "Benedicte",
      "contact_lastname": "Hoff",
      "street": "Schlossstra\u00dfe",
      "house_number": "7",
      "zip": "59581",
      "city": "Warstein-Hirschberg",
      "phone": "02902-3901",
      "mobile": null,
      "fax": "02902-774341",
      "email_address": "phoenix-hoff@t-online.de",
      "web_address": null
    },
    "16": {
      "company_name": "Ferienwohnung Elisabeth Hoff",
      "contact_salutation": "Frau",
      "contact_firstname": "Elisabeth",
      "contact_lastname": "Hoff",
      "street": "Prinzenstra\u00dfe",
      "house_number": "19",
      "zip": "59581",
      "city": "Warstein-Hirschberg",
      "phone": "02902-3901",
      "mobile": null,
      "fax": "02902-774341",
      "email_address": "phoenix-hoff@t-online.de",
      "web_address": null
    },
    "17": {
      "company_name": "Gasthof-Pension Birkenhoff",
      "contact_salutation": "Familie",
      "contact_firstname": "",
      "contact_lastname": "Toupal",
      "street": "Bermecke",
      "house_number": "1",
      "zip": "59581",
      "city": "Warstein-Hirschberg",
      "phone": "02902-97780",
      "mobile": null,
      "fax": "02902-51861",
      "email_address": "kontakt@birkenhof-warstein.de",
      "web_address": "http://www.birkenhof-warstein.de/"
    }
  }
}
